,City,Cloudiness,Country,Date,Humidity,Lat,Lng,Max Temp,Wind Speed
0,Necochea,54,AR,1622079485,76,-38.5473,-58.7368,10.89,4.41
1,Ribeira Grande,92,PT,1622079486,68,38.5167,-28.7,15.3,6.09
2,Leningradskiy,25,RU,1622079487,82,69.3833,178.4167,2.07,2.92
3,Kapaa,75,US,1622079487,69,22.0752,-159.319,28.18,1.79
4,Butaritari,85,KI,1622079488,79,3.0707,172.7902,28.7,8.6
5,Cockburn Town,9,TC,1622079337,78,21.4612,-71.1419,26.2,6.72
6,Ushuaia,75,AR,1622079490,100,-54.8,-68.3,-2.19,9.26
7,Rikitea,91,PF,1622079377,70,-23.1203,-134.9692,23.72,7.74
8,Carnarvon,40,AU,1622079491,49,-24.8667,113.6333,20.04,4.63
9,Burgos,0,ES,1622079492,87,42.3394,-3.7079,7.23,0.51
10,Bambous Virieux,20,MU,1622079492,94,-20.3428,57.7575,22.14,2.05
11,Troitskiy,98,RU,1622079493,68,57.0603,63.7481,10.27,4.82
12,Arraial do Cabo,40,BR,1622079494,83,-22.9661,-42.0278,21.92,1.54
13,Lavrentiya,2,RU,1622079495,73,65.5833,-171.0,3.26,5.64
14,Hailey,20,US,1622079495,36,43.5196,-114.3153,16.92,4.12
15,New Norfolk,60,AU,1622079496,66,-42.7826,147.0587,10.72,1.34
16,Bredasdorp,100,ZA,1622079252,93,-34.5322,20.0403,10.62,1.83
17,Punta Arenas,20,CL,1622079497,74,-53.15,-70.9167,-0.94,5.26
18,Khatanga,64,RU,1622079498,87,71.9667,102.5,-2.72,4.73
19,Barrow,90,US,1622079499,80,71.2906,-156.7887,1.01,6.69
20,Mahébourg,20,MU,1622079326,94,-20.4081,57.7,22.16,3.09
21,Mar del Plata,0,AR,1622079500,55,-38.0023,-57.5575,12.85,3.13
22,Peniche,100,PT,1622079501,88,39.3558,-9.3811,17.01,6.1
23,Mataura,100,NZ,1622079501,65,-46.1927,168.8643,9.71,1.11
24,Cherskiy,94,RU,1622079502,32,68.75,161.3,15.8,3.03
25,Aleksandrov Gay,65,RU,1622079503,68,50.147,48.5704,15.19,5.78
26,Ormara,13,PK,1622079503,87,25.2088,64.6357,29.2,2.81
27,Jacareacanga,81,BR,1622079504,75,-6.2222,-57.7528,23.3,0.29
28,Bengkulu,45,ID,1622079505,65,-3.8004,102.2655,29.48,1.32
29,Vaini,20,TO,1622079506,69,-21.2,-175.2,26.09,4.63
30,Yellowknife,90,CA,1622079507,32,62.456,-114.3525,10.31,2.24
31,Zhigansk,10,RU,1622079508,45,66.7697,123.3711,14.81,6.65
32,Avarua,40,CK,1622079508,78,-21.2078,-159.775,28.03,4.12
33,La Paz,75,BO,1622079306,76,-16.5,-68.15,8.99,5.66
34,Hobart,75,AU,1622079381,66,-42.8794,147.3294,10.92,2.68
35,Dalvik,38,IS,1622079510,67,65.9702,-18.5286,5.96,0.34
36,Inta,56,RU,1622079511,55,66.0317,60.1659,2.91,3.11
37,Hithadhoo,76,MV,1622079512,68,-0.6,73.0833,28.94,8.77
38,Yakima,1,US,1622079513,21,46.4665,-120.6678,25.86,5.14
39,Castro,100,BR,1622079513,61,-24.7911,-50.0119,14.36,1.59
40,Poltavka,3,RU,1622079514,57,54.3663,71.7632,14.46,7.66
41,Cidreira,100,BR,1622079515,74,-30.1811,-50.2056,13.93,3.07
42,Busselton,100,AU,1622079516,63,-33.65,115.3333,15.02,7.62
43,Kenai,1,US,1622079482,57,60.5544,-151.2583,18.35,7.72
44,Chui,16,UY,1622079517,82,-33.6971,-53.4616,12.0,4.74
45,Port Alfred,76,ZA,1622079518,86,-33.5906,26.891,16.2,3.57
46,Swan Hill,1,AU,1622079519,53,-35.3378,143.5544,16.23,6.21
47,Tual,68,ID,1622079309,73,-5.6667,132.75,27.55,10.73
48,Martapura,10,ID,1622079521,66,-3.4167,114.85,30.05,1.72
49,Sitka,90,US,1622079521,71,57.0531,-135.33,10.94,4.12
50,Bhan,15,PK,1622079522,34,26.5583,67.7214,34.23,3.03
51,Severo-Yeniseyskiy,100,RU,1622079523,52,60.3725,93.0408,5.81,2.9
52,Hilo,75,US,1622079523,72,19.7297,-155.09,28.49,4.12
53,Zeya,100,RU,1622079389,53,53.75,127.2667,12.08,0.86
54,Port Hedland,70,AU,1622079525,29,-20.3167,118.5667,26.03,8.75
55,Roald,0,NO,1622079525,87,62.5833,6.1333,10.03,7.2
56,Albany,88,US,1622079339,89,42.6001,-73.9662,20.4,2.47
57,Nikolskoye,91,RU,1622079526,98,59.7035,30.7861,8.0,2.1
58,Norman Wells,75,CA,1622079527,50,65.282,-126.8329,12.02,4.63
59,Beya,48,RU,1622079528,70,53.0533,90.9139,19.56,1.63
60,Port Lincoln,99,AU,1622079421,63,-34.7333,135.8667,16.1,3.06
61,Kalāleh,100,IR,1622079529,87,37.3807,55.4916,19.05,1.26
62,Marathon,1,US,1622079530,47,44.9,-89.7668,15.74,3.56
63,Srednekolymsk,94,RU,1622079530,33,67.45,153.6833,17.63,6.9
64,Aljezur,99,PT,1622079531,75,37.3191,-8.8033,15.79,2.46
65,Provideniya,0,RU,1622079532,49,64.3833,-173.3,8.06,6.0
66,Lorengau,99,PG,1622079533,91,-2.0226,147.2712,25.94,6.23
67,San Patricio,2,US,1622079533,86,28.017,-97.5169,27.4,5.02
68,Kirovskiy,100,RU,1622079534,50,45.0917,133.5136,17.43,0.97
69,Atuona,76,PF,1622079535,75,-9.8,-139.0333,26.46,6.16
70,Beyneu,79,KZ,1622079535,26,45.3167,55.2,27.61,2.31
71,Cape Town,100,ZA,1622079536,89,-33.9258,18.4232,12.84,2.41
72,Airai,8,TL,1622079537,55,-8.9266,125.4092,21.97,2.63
73,Ola,100,RU,1622079537,74,59.5833,151.2833,5.96,1.58
74,Bluff,100,NZ,1622079538,69,-46.6,168.3333,9.89,6.01
75,Visby,20,SE,1622079539,100,57.6409,18.296,9.36,4.63
76,Upernavik,100,GL,1622079540,93,72.7868,-56.1549,-0.39,4.47
77,Cherlak,100,RU,1622079541,53,54.155,74.8055,15.39,8.21
78,Micheweni,48,TZ,1622079541,83,-4.9667,39.8333,24.72,5.55
79,Chokurdakh,29,RU,1622079542,69,70.6333,147.9167,7.0,4.58
80,Hervey Bay,3,AU,1622079544,59,-25.2986,152.8535,24.45,1.79
81,Sistranda,42,NO,1622079545,90,63.7256,8.834,8.98,6.94
82,Camabatela,3,AO,1622079546,59,-8.1881,15.375,14.65,1.74
83,Tanout,13,NE,1622079546,11,14.9709,8.8879,26.4,1.39
84,Pangai,75,TO,1622079547,73,-19.8,-174.35,26.06,3.6
85,Morondava,2,MG,1622079548,89,-20.2833,44.2833,19.07,3.44
86,Pangnirtung,100,CA,1622079548,90,66.1451,-65.7125,-5.68,2.26
87,Örnsköldsvik,20,SE,1622079549,70,63.2909,18.7153,7.9,6.33
88,Mzimba,0,MW,1622079550,86,-11.9,33.6,10.39,2.65
89,Berlevåg,99,NO,1622079550,71,70.8578,29.0864,4.23,6.7
90,Hasaki,100,JP,1622079551,89,35.7333,140.8333,18.16,7.39
91,Kahului,40,US,1622079552,72,20.8947,-156.47,31.41,9.77
92,Deming,1,US,1622079553,4,32.2687,-107.7586,30.94,7.2
93,Vanimo,38,PG,1622079553,63,-2.6741,141.3028,30.47,1.89
94,Palmer,90,US,1622079554,86,42.1584,-72.3287,20.96,2.59
95,Torbay,90,CA,1622079332,96,47.6666,-52.7314,9.93,2.57
96,Vardø,81,NO,1622079555,79,70.3705,31.1107,4.1,7.49
97,Flinders,0,AU,1622079556,52,-34.5833,150.8552,17.81,3.13
98,Berlin,0,DE,1622079361,80,52.5244,13.4105,10.04,4.02
99,Mount Gambier,75,AU,1622079557,82,-37.8333,140.7667,13.95,5.66
100,Araouane,100,ML,1622079558,23,18.9048,-3.5265,33.4,4.0
101,Bathsheba,75,BB,1622079558,69,13.2167,-59.5167,27.34,7.33
102,Saint George,1,US,1622079559,9,37.1041,-113.5841,32.26,0.45
103,Champerico,100,GT,1622079560,70,14.3,-91.9167,29.64,2.86
104,Ostrovnoy,27,RU,1622079561,68,68.0531,39.5131,2.91,3.52
105,Apple Valley,0,US,1622079374,28,34.5008,-117.1859,27.34,0.89
106,Soyo,33,AO,1622079405,91,-6.1349,12.3689,24.47,2.43
107,Honiara,67,SB,1622079562,65,-9.4333,159.95,29.69,1.45
108,High Rock,8,BS,1622079563,76,26.6208,-78.2833,25.01,4.72
109,Pisco,40,PE,1622079564,94,-13.7,-76.2167,18.34,2.57
110,Daloa,89,CI,1622079564,99,6.8774,-6.4502,22.47,1.34
111,College,75,US,1622079565,31,64.8569,-147.8028,19.97,2.06
112,Lompoc,75,US,1622079566,79,34.6391,-120.4579,22.29,5.14
113,Vaxjo,90,SE,1622079566,93,56.8777,14.8091,7.07,1.54
114,Camacha,75,PT,1622079567,68,33.0833,-16.3333,16.96,6.69
115,Verkhoyansk,5,RU,1622079568,30,67.5447,133.385,17.1,2.37
116,Holly Springs,67,US,1622079432,69,35.6513,-78.8336,28.56,3.29
117,Kavaratti,100,IN,1622079569,75,10.5669,72.642,28.45,6.69
118,Mehamn,86,NO,1622079570,73,71.0357,27.8492,4.19,5.65
119,Hermanus,100,ZA,1622079570,73,-34.4187,19.2345,12.72,2.26
120,Brigantine,1,US,1622079571,82,39.4101,-74.3646,23.35,6.03
121,Port-Gentil,100,GA,1622079572,85,-0.7193,8.7815,26.17,5.52
122,Río Gallegos,20,AR,1622079573,86,-51.6226,-69.2181,-0.97,1.54
123,Noumea,2,NC,1622079573,99,-22.2763,166.4572,24.99,2.1
124,Marzuq,89,YE,1622079574,61,14.4,46.4667,22.69,2.22
125,Oranjestad,20,AW,1622079575,74,12.524,-70.027,26.97,9.26
126,Nabire,46,ID,1622079575,68,-3.3667,135.4833,29.9,1.37
127,Souillac,20,MU,1622079576,94,-20.5167,57.5167,22.21,1.63
128,Alta Floresta,8,BR,1622079577,68,-9.8756,-56.0861,22.49,1.3
129,Saint-Philippe,19,RE,1622079578,83,-21.3585,55.7679,20.77,0.99
130,Rawson,100,AR,1622079578,62,-43.3002,-65.1023,10.75,4.87
131,Orange Cove,78,US,1622079363,11,36.6244,-119.3137,32.74,3.55
132,Camrose,89,CA,1622079324,75,53.0168,-112.8353,18.85,6.53
133,Pascagoula,1,US,1622079536,86,30.3658,-88.5561,26.03,4.09
134,East London,68,ZA,1622079486,89,-33.0153,27.9116,17.72,3.82
135,Grand-Santi,100,GF,1622079581,99,4.25,-54.3833,23.22,0.72
136,Kumul,0,CN,1622079582,9,42.8,93.45,29.61,5.84
137,Sabang,100,ID,1622079582,75,5.8933,95.3214,28.54,8.63
138,Klaksvík,95,FO,1622079403,78,62.2266,-6.589,4.51,6.86
139,Wasilla,1,US,1622079544,33,61.5814,-149.4394,22.03,2.57
140,Kieta,100,PG,1622079308,82,-6.2167,155.6333,27.65,2.19
141,Brae,100,GB,1622079585,84,60.3964,-1.353,8.95,6.38
142,Tiksi,16,RU,1622079585,88,71.6872,128.8694,3.14,1.65
143,Yulara,100,AU,1622079586,47,-25.2406,130.9889,12.91,9.26
144,Maragogi,53,BR,1622079587,76,-9.0122,-35.2225,25.07,4.79
145,Jamestown,1,US,1622079474,82,42.097,-79.2353,17.77,1.34
146,Hong Kong,47,HK,1622079521,75,22.2855,114.1577,33.31,2.68
147,Puerto Ayora,58,EC,1622079528,92,-0.7393,-90.3518,23.64,2.24
148,Lyantonde,90,UG,1622079590,87,-0.4031,31.1572,16.54,1.3
149,Shimoda,100,JP,1622079373,96,34.6667,138.95,17.28,4.37
150,Vostok,82,RU,1622079591,43,46.4856,135.8833,14.14,2.0
151,Lagoa,100,PT,1622079591,66,39.05,-27.9833,14.96,6.12
152,Giraltovce,2,SK,1622079592,94,49.114,21.5173,7.86,0.58
153,Arkadelphia,1,US,1622079593,78,34.1209,-93.0538,28.54,0.0
154,Esil,11,KZ,1622079594,48,51.9556,66.4042,16.17,7.55
155,Portland,75,US,1622079573,43,45.5234,-122.6762,22.77,1.34
156,Caravelas,26,BR,1622079595,93,-17.7125,-39.2481,22.53,0.47
157,Karasburg,54,NA,1622079596,33,-28.0167,18.75,15.98,2.81
158,Kudahuvadhoo,83,MV,1622079596,72,2.6708,72.8944,28.99,9.01
159,Djebeniana,73,TN,1622079597,63,35.035,10.9081,20.89,3.34
160,The Valley,83,AI,1622079598,77,18.217,-63.0578,27.28,7.09
161,León,66,MX,1622079455,42,21.1167,-101.6667,30.03,7.5
162,Victor Harbor,89,AU,1622079600,72,-35.5667,138.6167,17.48,0.89
163,Adrar,0,MR,1622079600,22,20.5022,-10.0711,30.52,5.11
164,Pevek,9,RU,1622079601,90,69.7008,170.3133,0.63,1.19
165,Fortuna,1,US,1622079602,67,40.5982,-124.1573,15.52,1.34
166,Teknāf,99,BD,1622079604,78,20.8624,92.3058,28.22,7.29
167,Camocim,70,BR,1622079605,83,-2.9022,-40.8411,24.55,4.34
168,Esperance,100,AU,1622079605,54,-33.8667,121.9,12.91,8.24
169,Port Elizabeth,0,ZA,1622079607,93,-33.918,25.5701,11.16,1.03
170,Obo,100,CF,1622079607,99,5.3998,26.4869,19.97,1.5
171,Qaanaaq,0,GL,1622079608,77,77.484,-69.3632,-1.08,2.0
172,Dikson,100,RU,1622079609,95,73.5069,80.5464,-1.24,5.54
173,Nome,1,US,1622079610,29,64.5011,-165.4064,18.95,3.09
174,Pula,0,HR,1622079610,81,44.8683,13.8481,13.48,1.54
175,Saint-Augustin,100,CA,1622079611,98,51.226,-58.6502,6.94,1.88
176,Thompson,20,CA,1622079612,39,55.7435,-97.8558,6.09,3.6
177,Saldanha,100,ZA,1622079517,85,-33.0117,17.9442,11.03,0.66
178,Aykhal,100,RU,1622079613,48,66.0,111.5,11.71,3.35
179,Clyde River,13,CA,1622079614,87,70.4692,-68.5914,-6.02,3.69
180,Cochabamba,75,BO,1622079615,36,-17.3895,-66.1568,17.86,1.54
181,Poum,0,NC,1622079615,56,-20.2333,164.0167,22.7,5.21
182,Talnakh,54,RU,1622079616,88,69.4865,88.3972,-4.28,1.42
183,Nemuro,20,JP,1622079617,78,43.3236,145.575,20.24,3.37
184,Jiuquan,68,CN,1622079618,13,39.7432,98.5174,22.98,4.12
185,Yangi Marg`ilon,15,UZ,1622079619,38,40.4272,71.7189,20.68,1.45
186,Kendari,61,ID,1622079620,74,-3.945,122.4989,28.93,2.51
187,Longyearbyen,75,SJ,1622079572,80,78.2186,15.6401,0.91,5.66
188,Okitipupa,66,NG,1622079621,96,6.5047,4.7839,24.52,1.02
189,George Town,40,MY,1622079622,95,5.4112,100.3354,25.5,0.45
190,Pitimbu,41,BR,1622079623,84,-7.4706,-34.8086,25.33,5.98
191,Santa Marinella,100,IT,1622079615,65,42.0345,11.8536,16.9,1.35
192,Fairbanks,90,US,1622079483,32,64.8378,-147.7164,19.22,0.0
193,Hualmay,44,PE,1622079624,89,-11.0964,-77.6139,19.02,1.99
194,Cap-aux-Meules,75,CA,1622079625,64,47.3821,-61.8597,20.03,8.75
195,Kavieng,100,PG,1622079626,83,-2.5744,150.7967,27.27,4.76
196,Sarkand,12,KZ,1622079626,33,45.41,79.9186,26.03,1.49
197,Saint Paul Harbor,1,US,1622079627,58,57.79,-152.4072,12.73,2.06
198,Sirte,96,LY,1622079628,76,31.2089,16.5887,20.61,2.72
199,Tuktoyaktuk,90,CA,1622079629,74,69.4541,-133.0374,-1.0,4.63
200,Lebu,100,CL,1622079608,95,-37.6167,-73.65,14.06,2.91
201,Iskateley,100,RU,1622079630,66,67.6803,53.1512,2.08,4.32
202,Saskylakh,100,RU,1622079630,78,71.9167,114.0833,3.13,5.57
203,Phuket,75,TH,1622079632,79,8.0,98.25,30.56,5.66
204,Jönköping,90,SE,1622079399,100,57.7814,14.1562,9.1,4.63
205,Mashhad,40,IR,1622079444,56,36.297,59.6062,22.08,0.0
206,Ariquemes,13,BR,1622079624,89,-9.9133,-63.0408,23.0,0.89
207,Kawalu,75,ID,1622079634,62,-7.3817,108.2082,28.75,1.86
208,Burnie,6,AU,1622079635,57,-41.0667,145.9167,13.84,8.27
209,Eenhana,0,NA,1622079630,52,-17.4667,16.3333,11.86,3.39
210,Svetlaya,100,RU,1622079636,76,46.5389,138.3297,8.18,2.67
211,Kropotkin,76,RU,1622079637,79,45.4375,40.5756,14.0,1.1
212,Skjervøy,84,NO,1622079637,75,70.0311,20.9714,5.73,2.56
213,Katsuura,100,JP,1622079638,94,35.1333,140.3,17.06,4.79
214,Sechura,25,PE,1622079354,79,-5.5569,-80.8222,21.83,5.89
215,Zyryanka,100,RU,1622079402,37,65.75,150.85,15.38,4.19
216,Faanui,18,PF,1622079581,69,-16.4833,-151.75,27.58,5.15
217,Havre-St-Pierre,90,CA,1622079640,93,50.2334,-63.5986,11.33,1.54
218,Burns Lake,100,CA,1622079641,82,54.2331,-125.7533,8.68,0.82
219,Ponnāni,93,IN,1622079642,81,10.767,75.9252,24.62,2.65
220,Vigrestad,98,NO,1622079642,78,58.5667,5.7,12.22,3.6
221,Aswān,2,EG,1622079635,17,24.0934,32.907,28.54,2.69
222,Annoeullin,0,FR,1622079643,79,50.5293,2.9318,10.66,2.58
223,Benghazi,11,LY,1622079644,71,32.1167,20.0667,21.18,4.52
224,Ponta do Sol,100,PT,1622079645,77,32.6667,-17.1,18.89,2.05
225,Guerrero Negro,41,MX,1622079451,77,27.9769,-114.0611,17.71,7.48
226,Porto Walter,93,BR,1622079646,84,-8.2686,-72.7439,23.2,0.75
227,Husavik,22,IS,1622079647,76,66.0449,-17.3389,5.95,4.77
228,Green River,44,US,1622079577,31,41.5286,-109.4662,18.22,8.71
229,Kirakira,100,SB,1622079608,64,-10.4544,161.9205,27.98,4.99
230,Cao Bang,95,VN,1622079648,70,22.6667,106.25,29.74,1.35
231,Casper,1,US,1622079649,22,42.8666,-106.3131,19.33,8.15
232,Nioro,73,GM,1622079650,58,13.35,-15.75,25.93,3.06
233,Belgrade,0,RS,1622079560,58,44.804,20.4651,15.92,1.25
234,Menongue,0,AO,1622079651,62,-14.6585,17.691,9.64,1.99
235,Bowen,7,AU,1622079651,54,-20.0167,148.2333,25.12,4.37
236,Zaysan,0,KZ,1622079600,29,47.4667,84.8667,25.73,0.7
237,Beni,100,CD,1622079653,97,0.5,29.4667,15.91,0.85
238,Conde,75,BR,1622079653,88,-7.2597,-34.9075,24.7,3.61
239,Chai Badan,98,TH,1622079654,84,15.2,101.1333,26.59,1.41
240,Yinchuan,0,CN,1622079655,10,38.4681,106.2731,26.88,5.53
241,Severo-Kuril'sk,100,RU,1622079655,98,50.6789,156.125,3.83,4.64
242,Cururupu,82,BR,1622079656,92,-1.8283,-44.8683,24.01,0.89
243,Jevnaker,58,NO,1622079657,90,60.2414,10.385,8.26,2.25
244,Elk Point,100,US,1622079658,66,42.6833,-96.6836,24.58,6.42
245,Bīdar,100,IN,1622079659,48,17.9,77.55,27.32,8.02
246,Erbach im Odenwald,11,DE,1622079659,98,49.6561,8.9964,8.05,2.78
247,Sinolon,100,PH,1622079660,79,6.2439,124.8144,27.32,1.38
248,Rio Grande,100,BR,1622079661,75,-32.035,-52.0986,13.4,4.31
249,Siguiri,100,GN,1622079661,65,11.6667,-9.5,26.27,1.22
250,Marsh Harbour,88,BS,1622079662,75,26.5412,-77.0636,24.68,3.33
251,Petropavlovsk-Kamchatskiy,75,RU,1622079663,87,53.0452,158.6483,5.33,1.71
252,Tura,100,IN,1622079664,80,25.5198,90.2201,23.94,2.53
253,Korāput,96,IN,1622079664,45,18.8167,82.7167,27.5,3.0
254,Thornbury,4,GB,1622079665,95,52.2333,-2.55,7.51,1.19
255,Kaitangata,100,NZ,1622079604,49,-46.2817,169.8464,9.58,1.36
256,Äänekoski,100,FI,1622079667,100,62.6946,25.818,6.03,3.81
257,Bibiani,94,GH,1622079668,99,6.4635,-2.3194,22.76,0.85
258,Half Moon Bay,90,US,1622079668,74,37.4636,-122.4286,23.62,0.89
259,Deputatsky,100,RU,1622079669,59,69.3,139.9,10.28,8.35
260,Wanning,48,CN,1622079670,76,18.8003,110.3967,29.92,4.4
261,Krasnosel'kup,98,RU,1622079670,55,65.7,82.4667,0.89,6.74
262,Seoul,90,KR,1622079373,94,37.5683,126.9778,15.73,4.39
263,Dingle,49,PH,1622079584,61,10.9995,122.6711,31.42,2.08
264,Ondjiva,0,AO,1622079672,51,-17.0667,15.7333,12.19,3.16
265,Kununurra,67,AU,1622079654,29,-15.7667,128.7333,29.45,9.1
266,Vilhena,81,BR,1622079608,71,-12.7406,-60.1458,21.4,0.41
267,Ozernovskiy,100,RU,1622079638,88,51.5,156.5167,4.36,2.64
268,Tuatapere,100,NZ,1622079674,72,-46.1333,167.6833,9.9,3.62
269,Wairoa,60,NZ,1622079675,89,-39.0333,177.3667,13.67,3.13
270,Kirensk,80,RU,1622079675,48,57.7853,108.1119,7.01,2.64
271,Nizwá,7,OM,1622079676,18,22.9333,57.5333,30.77,0.76
272,Klamath Falls,1,US,1622079677,16,42.2249,-121.7817,23.05,5.14
273,Lüderitz,56,NA,1622079678,69,-26.6481,15.1594,16.54,2.57
274,Vanderhoof,100,CA,1622079679,90,54.0166,-124.0198,10.51,2.61
275,Eyl,37,SO,1622079679,69,7.9803,49.8164,25.67,7.56
276,Mount Isa,2,AU,1622079681,23,-20.7333,139.5,20.87,8.23
277,Marshalltown,1,US,1622079681,40,42.0494,-92.908,23.97,3.09
278,Evensk,100,RU,1622079682,96,61.95,159.2333,4.55,7.12
279,Olafsvik,66,IS,1622079683,86,64.8945,-23.7142,7.69,2.55
280,Manokwari,100,ID,1622079684,73,-0.8667,134.0833,27.78,2.38
281,Huarmey,61,PE,1622079684,89,-10.0681,-78.1522,19.73,2.06
282,Ancud,100,CL,1622079583,94,-41.8697,-73.8203,14.12,9.95
283,Sørland,83,NO,1622079610,83,67.667,12.6934,6.23,9.81
284,Sobolevo,33,RU,1622079686,90,54.4299,31.8996,8.44,1.98
285,Alofi,75,NU,1622079687,83,-19.0595,-169.9187,25.94,3.09
286,Agutaya,44,PH,1622079688,72,11.148,120.9417,28.86,0.35
287,Iqaluit,75,CA,1622079688,80,63.7506,-68.5145,-0.15,4.63
288,Maţāy,0,EG,1622079689,38,28.419,30.7792,24.19,5.56
289,Najrān,18,SA,1622079690,15,17.4924,44.1277,23.36,1.69
290,Ilulissat,100,GL,1622079690,35,69.2167,-51.1,12.01,13.89
291,Sola,100,VU,1622079691,63,-13.8833,167.55,25.21,6.8
292,Yanggu,0,CN,1622079692,14,36.1106,115.7753,31.24,5.68
293,São Filipe,0,CV,1622079693,75,14.8961,-24.4956,23.27,4.36
294,Chifeng,94,CN,1622079693,26,42.2683,118.9636,19.45,3.35
295,Henties Bay,4,NA,1622079694,61,-22.116,14.2845,18.97,2.12
296,Magistral'nyy,97,RU,1622079695,52,56.1725,107.4458,5.83,2.29
297,Dukhovnitskoye,0,RU,1622079695,80,52.4828,48.2137,12.49,3.2
298,Mossamedes,0,AO,1622079696,64,-15.1961,12.1522,22.6,2.42
299,General Roca,100,AR,1622079697,54,-39.0333,-67.5833,17.22,6.69
300,Gari,92,RU,1622079697,77,59.4307,62.3497,6.04,3.87
301,Arrondissement de Vannes,100,FR,1622079698,96,47.8333,-2.5,12.57,1.65
302,Vanino,100,RU,1622079699,57,49.0869,140.2543,10.1,3.88
303,Acapulco de Juárez,90,MX,1622079631,66,16.8634,-99.8901,29.9,1.99
304,Kruisfontein,100,ZA,1622079700,79,-34.0033,24.7314,12.0,2.4
305,Madisonville,67,US,1622079700,96,37.3281,-87.4989,22.9,1.14
306,Asău,90,RO,1622079701,99,46.4333,26.4,13.2,1.17
307,Abalak,100,RU,1622079702,81,58.1286,68.5944,7.61,6.23
308,Beringovskiy,100,RU,1622079703,98,63.05,179.3167,0.32,7.32
309,Garissa,77,KE,1622079482,83,-0.4536,39.6401,22.52,6.06
310,Touros,37,BR,1622079633,86,-5.1989,-35.4608,24.5,5.37
311,Tasiilaq,100,GL,1622079705,93,65.6145,-37.6368,5.09,12.11
312,Coyhaique,75,CL,1622079526,93,-45.5752,-72.0662,6.97,3.09
313,Kungurtug,100,RU,1622079706,86,50.5994,97.5228,7.94,0.67
314,Bethel,100,US,1622079706,68,41.3712,-73.414,22.18,3.49
315,Kamaishi,100,JP,1622079707,63,39.2667,141.8833,14.53,4.48
316,Gouyave,40,GD,1622079708,83,12.1646,-61.7296,26.43,6.03
317,Tabas,0,IR,1622079708,43,33.5959,56.9244,24.08,1.43
318,Santomera,99,ES,1622079709,84,38.0615,-1.0488,17.51,0.89
319,San Borja,26,BO,1622079710,86,-14.8167,-66.85,21.46,1.16
320,Hambantota,40,LK,1622079710,89,6.1241,81.1185,26.19,10.88
321,Port Hardy,90,CA,1622079711,87,50.6996,-127.4199,9.1,7.72
322,Tautira,65,PF,1622079712,73,-17.7333,-149.15,28.01,3.16
323,Jalu,0,LY,1622079712,28,29.0331,21.5482,24.5,2.87
324,Geraldton,97,AU,1622079642,39,-28.7667,114.6,18.96,5.69
325,Lodwar,97,KE,1622079714,53,3.1191,35.5973,26.23,6.93
326,Anadyr,0,RU,1622079714,40,64.75,177.4833,11.28,15.65
327,Avanigadda,100,IN,1622079715,43,16.0215,80.9181,32.08,6.32
328,Batticaloa,100,LK,1622079716,66,7.7102,81.6924,28.43,8.82
329,Umluj,5,SA,1622079716,45,25.0213,37.2685,29.69,4.18
330,Diego de Almagro,80,CL,1622079688,18,-26.3667,-70.05,18.85,1.0
331,Pacific Grove,90,US,1622079717,84,36.6177,-121.9166,24.22,1.79
332,Soloneshnoye,58,RU,1622079718,46,51.6544,84.3197,26.18,2.49
333,Aksarayskiy,100,RU,1622079719,75,46.7924,48.0119,17.97,2.14
334,Peshkopi,1,AL,1622079720,93,41.685,20.4289,10.03,0.58
335,Tzaneen,0,ZA,1622079541,51,-23.8332,30.1635,9.12,1.73
336,Mandasa,100,IN,1622079721,49,18.8667,84.4667,31.78,2.9
337,Tupik,100,RU,1622079722,95,54.4253,119.9327,3.65,2.33
338,Dukat,100,RU,1622079722,75,62.55,155.55,3.4,3.98
339,Praia da Vitória,75,PT,1622079723,72,38.7333,-27.0667,15.42,5.44
340,Grindavik,75,IS,1622079724,76,63.8424,-22.4338,7.97,12.65
341,Turbo,100,CO,1622079724,94,8.0937,-76.7269,25.15,3.46
342,Grand Gaube,8,MU,1622079725,83,-20.0064,57.6608,22.22,3.68
343,Mokhsogollokh,100,RU,1622079726,93,61.4681,128.9203,9.52,0.49
344,Pamanukan,67,ID,1622079727,72,-6.2842,107.8106,29.49,4.1
345,Makkah al Mukarramah,15,SA,1622079727,40,21.4267,39.8261,29.59,2.13
346,Inhambane,0,MZ,1622079728,81,-23.865,35.3833,17.32,1.65
347,Verkhniy Avzyan,0,RU,1622079729,64,53.5289,57.5372,12.3,1.48
348,Puerto Gaitán,99,CO,1622079509,93,4.3133,-72.0816,24.11,2.9
349,Coquimbo,0,CL,1622079196,93,-29.9533,-71.3436,9.85,1.26
350,Jutaí,84,BR,1622079731,97,-5.1833,-68.9,22.41,0.44
351,New Iberia,1,US,1622079732,78,30.0035,-91.8187,27.1,2.57
352,Parkersburg,40,US,1622079732,90,39.2667,-81.5615,21.74,0.89
353,Dunedin,100,NZ,1622079733,46,-45.8742,170.5036,10.45,2.24
354,Mareeba,37,AU,1622079734,56,-17.0,145.4333,25.24,3.17
355,Vanavara,9,RU,1622079734,34,60.34,102.2797,7.32,1.68
356,Sesheke,0,ZM,1622079736,63,-17.4759,24.2968,9.77,1.22
357,Tornio,7,FI,1622079737,84,65.8481,24.1466,4.01,4.14
358,Cortez,1,US,1622079738,11,37.3489,-108.5859,22.42,2.57
359,Nishifukuma,75,JP,1622079739,82,33.7667,130.4667,21.83,4.43
360,Riihimäki,100,FI,1622079739,96,60.7377,24.7773,7.93,3.45
361,Peterhead,90,GB,1622079740,88,57.5058,-1.7981,8.58,4.4
362,Ishigaki,75,JP,1622079741,79,24.3448,124.1572,31.07,9.26
363,Kuytun,3,RU,1622079741,46,54.3419,101.5036,9.41,2.95
364,Senador José Porfírio,59,BR,1622079742,83,-2.5908,-51.9542,25.16,0.48
365,Dāmghān,53,IR,1622079743,57,36.1683,54.348,18.48,4.53
366,Ilesha,100,NG,1622079743,99,7.1371,5.2583,22.95,1.53
367,Codrington,100,AU,1622079744,79,-38.2667,141.9667,13.13,7.65
368,Cabo San Lucas,20,MX,1622079553,28,22.8909,-109.9124,30.1,6.69
369,Larap,95,PH,1622079745,62,14.299,122.6504,31.54,0.95
370,Balangiga,97,PH,1622079746,77,11.1097,125.3875,28.83,1.66
371,Tessalit,68,ML,1622079747,7,20.1986,1.0114,31.99,2.46
372,Rocha,58,UY,1622079747,74,-34.4833,-54.3333,13.7,6.44
373,Itarema,43,BR,1622079748,82,-2.9248,-39.9167,26.18,5.86
374,Ostra,20,IT,1622079749,80,43.6139,13.1582,13.96,1.91
375,Challapata,100,BO,1622079749,55,-18.9,-66.7667,8.7,1.07
376,Agadez,0,NE,1622079750,5,19.75,10.25,28.27,2.59
377,Norrtälje,100,SE,1622079751,96,59.758,18.705,7.13,3.96
378,Bara,48,NG,1622079751,65,10.3744,10.7288,27.36,4.34
379,Kalmunai,100,LK,1622079752,66,7.4167,81.8167,27.56,3.83
380,Tabou,100,CI,1622079753,87,4.423,-7.3528,26.11,2.34
381,Smithers,75,CA,1622079753,71,54.7804,-127.1743,10.18,2.06
382,Los Llanos de Aridane,90,ES,1622079754,86,28.6585,-17.9182,17.86,6.06
383,Innisfail,11,AU,1622079755,65,-17.5333,146.0333,26.6,5.24
384,Waingapu,73,ID,1622079623,67,-9.6567,120.2641,29.11,8.25
385,Laguna,1,US,1622079468,26,38.421,-121.4238,32.03,3.58
386,Luanda,3,AO,1622079618,86,-8.8368,13.2343,22.21,3.83
387,Turukhansk,96,RU,1622079757,56,65.8167,87.9833,2.5,2.67
388,Vao,5,NC,1622079758,72,-22.6667,167.4833,22.09,4.53
389,Kisangani,100,CD,1622079759,84,0.5167,25.2,23.22,0.8
390,Khovd,0,MN,1622079759,33,48.0056,91.6419,19.21,1.76
391,Rwamagana,100,RW,1622079760,97,-1.9487,30.4347,17.69,1.09
392,Cayenne,75,GF,1622079669,88,4.9333,-52.3333,26.16,2.24
393,Shenzhen,53,CN,1622079539,70,22.5455,114.0683,33.25,3.77
394,Kimbe,100,PG,1622079762,93,-5.5502,150.1429,24.87,1.85
395,Sotnikovskoye,95,RU,1622079763,91,45.0039,43.7772,14.24,4.54
396,Troitskoye,5,RU,1622079763,48,52.9821,84.6757,23.64,4.52
397,Fukuechō,75,JP,1622079764,83,32.6881,128.8419,21.2,2.06
398,eMkhomazi,4,ZA,1622079765,85,-30.2067,30.7978,17.6,3.02
399,Junín,7,AR,1622079765,72,-34.5838,-60.9433,10.55,3.35
400,Nānākuli,20,US,1622079766,58,21.3906,-158.1547,30.97,2.4
401,Xining,3,CN,1622079767,35,36.6167,101.7667,18.22,1.17
402,General Cepeda,62,MX,1622079767,43,25.3833,-101.45,25.56,1.79
403,Viçosa do Ceará,27,BR,1622079768,68,-3.5622,-41.0922,20.29,1.53
404,Toamasina,20,MG,1622079769,100,-18.1667,49.3833,18.0,2.06
405,Ust'-Ilimsk,68,RU,1622079770,49,58.0006,102.6619,5.78,4.33
406,Al Bardīyah,2,LY,1622079771,72,31.7561,25.0865,20.75,5.0
407,Yantzaza,62,EC,1622079771,94,-3.8278,-78.7594,19.34,0.37
408,Abū Zabad,76,SD,1622079772,44,12.35,29.25,28.9,3.22
409,Luxor,0,EG,1622079773,29,25.6989,32.6421,26.03,0.0
410,Sooke,100,CA,1622079773,69,48.3746,-123.7276,15.61,1.97
411,Tacuarembó,49,UY,1622079741,89,-31.7333,-55.9833,10.54,2.67
412,Santa Cruz de la Sierra,80,BO,1622079765,83,-17.8,-63.1667,21.7,3.32
413,Bikin,3,RU,1622079775,53,46.8161,134.26,17.4,2.5
414,Hamilton,40,US,1622079631,91,39.1834,-84.5333,21.67,2.11
415,Dickinson,20,US,1622079550,79,29.4608,-95.0513,28.05,0.89
416,Uyskoye,0,RU,1622079777,62,54.3775,60.0047,12.48,2.97
417,Oistins,75,BB,1622079750,69,13.0667,-59.5333,27.05,8.23
418,Pyapon,100,MM,1622079778,71,16.2833,95.6833,29.62,2.33
419,Dillon,97,US,1622079779,52,34.4166,-79.3712,30.4,5.04
420,Sicuani,100,PE,1622079780,60,-14.2694,-71.2261,8.54,2.17
421,Dhārchula,60,IN,1622079781,26,29.85,80.5333,25.28,0.45
422,Port Moresby,40,PG,1622079782,51,-9.4431,147.1797,30.68,5.14
423,San Francisco,20,US,1622079660,77,37.7749,-122.4194,24.45,2.68
424,Novyy Starodub,100,UA,1622079784,63,48.5158,33.1733,16.19,2.24
425,Yar-Sale,8,RU,1622079784,56,66.8333,70.8333,1.73,3.7
426,Auki,42,SB,1622079785,68,-8.7676,160.7034,28.82,5.93
427,Katobu,22,ID,1622079786,63,-4.9408,122.5276,29.59,4.85
428,São João da Barra,82,BR,1622079786,86,-21.6403,-41.0511,22.73,4.23
429,La Ronge,1,CA,1622079612,27,55.1001,-105.2842,9.14,4.12
430,Nuuk,40,GL,1622079788,32,64.1835,-51.7216,11.34,9.26
431,Eureka,99,US,1622079788,78,40.8021,-124.1637,15.67,2.24
432,Mocuba,0,MZ,1622079789,92,-16.8392,36.9856,13.01,1.23
433,Lādnūn,0,IN,1622079622,43,27.65,74.3833,32.7,5.81
434,Calabozo,92,VE,1622079790,70,8.9242,-67.4293,26.36,1.9
435,Te Anau,100,NZ,1622079791,77,-45.4167,167.7167,9.85,2.63
436,Kuybysheve,99,UA,1622079792,66,47.358,36.6491,16.88,2.53
437,Bilibino,24,RU,1622079793,47,68.0546,166.4372,11.69,3.81
438,Shingū,100,JP,1622079625,98,33.7333,135.9833,17.73,4.49
439,Bobo-Dioulasso,88,BF,1622079794,60,11.1771,-4.2979,27.08,3.35
440,Prince Rupert,90,CA,1622079698,90,54.3161,-130.3201,9.05,2.57
441,San Cristobal,52,VE,1622079795,90,7.7669,-72.225,25.1,1.2
442,Karratha,99,AU,1622079796,50,-20.7377,116.8463,25.27,9.82
443,Avallon,100,FR,1622079797,98,47.4833,3.9,11.93,0.8
444,Gobabis,0,NA,1622079798,43,-22.45,18.9667,10.76,3.58
445,Ndélé,100,CF,1622079798,79,8.4109,20.6473,23.27,2.02
446,Batī,2,ET,1622079799,41,11.1833,40.0167,19.65,1.18
447,Roskoshnoye,59,UA,1622079800,72,48.5074,39.3004,13.8,1.44
448,Ouésso,48,CG,1622079800,98,1.6136,16.0517,21.46,0.73
449,Sovetskiy,58,RU,1622079801,63,61.3614,63.5842,4.71,5.34
450,Balabac,91,PH,1622079802,67,7.9868,117.0645,29.67,2.71
451,Kyra,95,RU,1622079802,57,49.5776,111.9753,10.38,6.37
452,Poya,5,NC,1622079803,56,-21.35,165.15,23.99,2.61
453,Kiunga,78,PG,1622079594,69,-6.1219,141.2906,28.42,2.43
454,Yeppoon,0,AU,1622079804,48,-23.1333,150.7333,25.88,2.38
455,Fengxian,0,CN,1622079805,25,34.7039,116.5872,29.6,4.72
456,Perevolotskiy,9,RU,1622079806,63,51.8763,54.1938,14.5,6.96
457,Waipawa,0,NZ,1622079806,54,-41.4122,175.5153,11.36,3.34
458,Puerto Escondido,90,MX,1622079807,70,15.85,-97.0667,29.46,0.0
459,Joshīmath,0,IN,1622079808,30,30.5667,79.5667,20.28,1.78
460,Zyryanovsk,0,KZ,1622079808,55,49.7386,84.2719,21.27,0.65
461,Kalmar,40,SE,1622079736,92,56.6616,16.3616,9.42,1.03
462,Lagunillas,35,VE,1622079809,78,10.1301,-71.2595,26.72,3.39
463,Vestmannaeyjar,28,IS,1622079810,81,63.4427,-20.2734,6.67,10.65
464,Ürümqi,0,CN,1622079811,17,43.801,87.6005,27.53,1.29
465,Acaraú,51,BR,1622079811,83,-2.8856,-40.12,26.06,5.98
466,Merauke,75,ID,1622079624,76,-8.4667,140.3333,26.59,4.77
467,Naze,99,JP,1622079813,82,28.3667,129.4833,26.51,11.31
468,Predivinsk,90,RU,1622079813,33,57.0669,93.4378,13.54,3.17
469,São Luiz Gonzaga,0,BR,1622079814,54,-28.4083,-54.9608,12.46,1.81
470,Shebunino,100,RU,1622079815,62,46.4339,141.8603,10.51,0.97
471,Kabompo,0,ZM,1622079815,51,-13.5927,24.2008,9.01,2.22
472,Wau,100,SS,1622079816,88,7.7029,27.9953,23.14,2.05
473,Kochi,100,IN,1622079817,84,9.9399,76.2602,23.99,1.03
474,Quesnel,90,CA,1622079818,51,52.9999,-122.5029,17.28,1.54
475,Ambulu,58,ID,1622079818,62,-8.345,113.6058,28.8,0.88
476,Aklavik,100,CA,1622079819,56,68.2191,-135.0107,2.4,4.52
477,Kandrian,100,PG,1622079820,80,-6.2167,149.55,26.67,5.77
478,Mayo,90,US,1622079820,89,38.8876,-76.5119,23.43,3.13
479,Yukamenskoye,84,RU,1622079821,76,57.8865,52.2416,7.41,2.49
480,Bud,3,US,1622079822,81,39.447,-86.1758,23.05,2.75
481,Sisimiut,0,GL,1622079822,50,66.9395,-53.6735,8.45,3.37
482,Villarrica,74,PY,1622079823,57,-25.75,-56.4333,15.79,1.19
483,Hofn,77,IS,1622079824,80,64.2539,-15.2082,5.88,1.53
484,Chepo,96,PA,1622079825,93,9.1667,-79.1,27.65,0.94
485,Oskarshamn,100,SE,1622079826,94,57.2645,16.4484,9.33,2.8
486,Goderich,26,CA,1622079740,66,43.7501,-81.7165,13.84,5.66
487,Havøysund,99,NO,1622079827,76,70.9963,24.6622,3.49,3.27
488,Ramos Arizpe,48,MX,1622079828,42,25.55,-100.9667,26.0,2.36
489,Quatre Cocos,15,MU,1622079829,88,-20.2078,57.7625,22.06,2.59
490,Ginda,0,IN,1622079829,25,30.6945,78.4932,22.37,0.83
491,College Place,1,US,1622079830,37,46.0493,-118.3883,26.62,0.45
492,Kattivākkam,17,IN,1622079831,69,13.2167,80.3167,30.04,6.98
493,Wankyi,90,GH,1622079832,91,7.7392,-2.1046,23.04,2.85
494,Nantucket,90,US,1622079832,94,41.2835,-70.0995,18.93,6.69
495,Zhigalovo,100,RU,1622079826,48,54.8097,105.1578,7.22,4.37
496,Alyangula,75,AU,1622079834,73,-13.8483,136.4192,24.93,7.81
497,Sioux Lookout,40,CA,1622079834,48,50.1001,-91.917,4.21,2.57
498,Conceição do Araguaia,0,BR,1622079835,63,-8.2578,-49.2647,22.31,0.99
499,Sosnogorsk,24,RU,1622079836,53,63.6023,53.8817,2.93,2.03
500,Gushikawa,40,JP,1622079836,77,26.3544,127.8686,29.79,9.09
501,Namatanai,100,PG,1622079837,85,-3.6667,152.4333,24.99,2.58
502,Sakakah,0,SA,1622079838,17,29.9697,40.2064,23.76,2.83
503,Kangaatsiaq,6,GL,1622079839,43,68.3065,-53.4641,9.11,10.95
504,Ternate,15,ID,1622079839,70,0.8,127.4,29.34,2.12
505,Dindori,94,IN,1622079840,57,22.95,81.0833,27.67,3.44
506,Grayslake,1,US,1622079841,74,42.3445,-88.0417,22.95,1.34
507,Birao,100,CF,1622079841,67,10.2849,22.7882,25.58,1.62
508,Basoko,99,CD,1622079842,80,1.2391,23.616,22.0,1.14
509,Lakes Entrance,44,AU,1622079843,77,-37.8811,147.981,14.76,7.49
510,Coihueco,100,CL,1622079559,100,-36.6167,-71.8333,12.01,1.16
511,Świnoujście,67,PL,1622079844,87,53.9105,14.2471,9.39,6.66
512,Aksu,85,CN,1622079845,14,41.1231,80.2644,24.86,1.39
513,Matagami,90,CA,1622079845,93,49.7502,-77.6328,2.06,5.21
514,Udachny,100,RU,1622079846,41,66.4167,112.4,13.66,3.99
515,Poronaysk,71,RU,1622079847,69,49.2167,143.1167,9.14,3.97
516,Farafangana,6,MG,1622079847,91,-22.8167,47.8333,18.34,2.7
517,Margate,18,GB,1622079848,80,51.3813,1.3862,10.02,0.89
518,Belmonte,0,BR,1622079833,78,-15.8631,-38.8828,24.28,1.45
519,Jizan,5,SA,1622079849,56,17.3333,42.6667,29.52,1.09
520,Praia,20,CV,1622079816,78,14.9215,-23.5087,22.3,8.75
521,Lubango,0,AO,1622079850,46,-14.9172,13.4925,12.17,1.72
522,Magaria,2,NE,1622079851,11,12.9983,8.9099,28.47,1.71
523,Grants,1,US,1622079852,8,35.1473,-107.8514,23.13,6.17
524,Bouna,100,CI,1622079584,78,9.2667,-3.0,24.73,3.88
525,Launceston,83,AU,1622079576,62,-41.45,147.1667,12.67,2.98
526,Lebedyan',39,RU,1622079853,78,53.0194,39.1664,14.03,2.2
527,Departamento de Maldonado,49,UY,1622079854,81,-34.6667,-54.9167,14.66,7.03
528,Prainha,73,BR,1622079855,83,-1.8,-53.48,25.08,1.29
529,Province of Mantua,97,IT,1622079614,86,45.1667,10.7833,15.71,0.77
530,Kurchum,0,KZ,1622079856,37,48.5722,83.6542,24.08,1.31
531,Westerland,90,DE,1622079856,93,54.9079,8.3033,9.41,3.6
532,Tevaitoa,15,PF,1622079857,71,-16.7833,-151.5,27.49,5.12
533,Kargil,0,IN,1622079858,38,34.5667,76.1,5.54,1.07
534,Otjimbingwe,0,NA,1622079858,31,-22.35,16.1333,15.52,3.11
535,Nyrob,18,RU,1622079620,61,60.733,56.7202,3.79,2.7
536,Springbok,99,ZA,1622079860,49,-29.6643,17.8865,13.73,1.88
537,Saint-Ambroise,91,CA,1622079860,88,48.5501,-71.3324,16.3,6.55
538,Sambava,2,MG,1622079861,84,-14.2667,50.1667,20.51,2.55
539,Korla,100,CN,1622079862,12,41.7597,86.1469,27.2,1.16
540,Yarke Pole,39,UA,1622079862,76,45.608,34.3172,14.08,1.77
541,Esna,0,EG,1622079863,16,25.2934,32.554,26.01,3.18
542,Russell,1,US,1622079864,77,32.3502,-85.1999,27.78,1.45
543,Caucasia,100,CO,1622079866,94,7.9865,-75.1935,25.31,2.55
544,Kulhudhuffushi,98,MV,1622079857,78,6.6221,73.07,27.98,10.96
545,Talcahuano,90,CL,1622079785,100,-36.7167,-73.1167,12.82,2.06
546,Altamont,1,US,1622079868,16,42.2068,-121.7372,23.0,5.14
547,Saint Anthony,1,US,1622079649,46,45.0205,-93.218,16.03,0.45
548,Ploemeur,75,FR,1622079869,99,47.7333,-3.4333,12.68,0.51
549,Haines Junction,47,CA,1622079652,33,60.7522,-137.5108,14.97,4.12
550,Shitkino,45,RU,1622079871,38,56.3703,98.3543,10.11,1.6
551,Alice Springs,1,AU,1622079656,47,-23.7,133.8833,13.75,8.79
552,Biak,15,ID,1622079872,70,-0.9131,122.8766,28.43,3.45
553,Sakata,0,JP,1622079872,67,38.9167,139.855,17.1,3.55
554,Keti Bandar,10,PK,1622079873,83,24.1447,67.4497,29.07,8.1
555,Mahibadhoo,100,MV,1622079874,74,3.7833,72.9667,28.68,8.91
556,Zhezkazgan,30,KZ,1622079874,23,47.8043,67.7144,25.34,2.78
557,Constitución,9,CL,1622079875,88,-35.3333,-72.4167,13.76,3.23
558,Tumalaytay,59,PH,1622079876,58,12.2758,123.232,31.55,2.21
559,Yumen,69,CN,1622079876,9,40.2833,97.2,23.79,6.41
560,Zykovo,96,RU,1622079877,56,55.9519,93.1461,5.41,1.3
